[
  {
    "name": "The Rusty Anchor",
    "description": "Waterfront seafood restaurant with fresh catches and ocean views",
    "phoneNumber": "+1-206-555-0123",
    "website": "https://rustyanchor.com",
    "email": "info@rustyanchor.com",
    "streetAddress": "1200 Alaskan Way",
    "locality": "Seattle",
    "region": "WA",
    "postalCode": "98101",
    "country": "United States",
    "latitude": 47.6089,
    "longitude": -122.3356,
    "categoryId": 1
  },
  {
    "name": "Maria's Italian Bistro",
    "description": "Authentic Italian cuisine in a cozy neighborhood setting",
    "phoneNumber": "+1-206-555-0124",
    "website": "https://mariasbistro.com",
    "email": "hello@mariasbistro.com",
    "streetAddress": "2301 2nd Avenue",
    "locality": "Seattle",
    "region": "WA",
    "postalCode": "98121",
    "country": "United States",
    "latitude": 47.6155,
    "longitude": -122.3444,
    "categoryId": 1
  },
  {
    "name": "Craft & Draft",
    "description": "Local craft beer taphouse with over 50 taps and pub food",
    "phoneNumber": "+1-206-555-0125",
    "website": "https://craftanddraft.com",
    "email": "info@craftanddraft.com",
    "streetAddress": "1435 1st Avenue",
    "locality": "Seattle",
    "region": "WA",
    "postalCode": "98101",
    "country": "United States",
    "latitude": 47.6078,
    "longitude": -122.3345,
    "categoryId": 2
  },
  {
    "name": "The Jazz Corner",
    "description": "Live jazz music venue with cocktails and late-night dining",
    "phoneNumber": "+1-206-555-0126",
    "website": "https://jazzcorner.com",
    "email": "bookings@jazzcorner.com",
    "streetAddress": "88 Union Street",
    "locality": "Seattle",
    "region": "WA",
    "postalCode": "98101",
    "country": "United States",
    "latitude": 47.6098,
    "longitude": -122.3331,
    "categoryId": 3
  },
  {
    "name": "Pike Place Cafe",
    "description": "Casual cafe near Pike Place Market with coffee and light bites",
    "phoneNumber": "+1-206-555-0127",
    "website": "https://pikeplacecafe.com",
    "email": "orders@pikeplacecafe.com",
    "streetAddress": "1501 Pike Place",
    "locality": "Seattle",
    "region": "WA",
    "postalCode": "98101",
    "country": "United States",
    "latitude": 47.6098,
    "longitude": -122.3403,
    "categoryId": 1
  }
]
